City,Latitude,Longitude
Caloocan,14.7566,121.045
Las Piñas,14.4445,120.9939
Makati,14.5547,121.0244
Malabon,14.6681,120.9658
Mandaluyong,14.5794,121.0359
Manila,14.5995,120.9842
Marikina,14.6507,121.1029
Muntinlupa,14.4081,121.0415
Navotas,14.6732,120.935
Parañaque,14.4793,121.0198
Pasay,14.5378,121.0014
Pasig,14.5764,121.0851
Quezon,14.676,121.0437
San Juan,14.6019,121.0355
Taguig,14.520445,121.053886
Valenzuela,14.70358,120.986542
